[
  {
    "address_components": [
      {
        "long_name": "Green Delta AIMS Tower",
        "short_name": "Green Delta AIMS Tower",
        "types": [
          "premise"
        ]
      },
      {
        "long_name": "Bir Uttam AK Khandakar Road",
        "short_name": "Bir Uttam AK Khandakar Rd",
        "types": [
          "route"
        ]
      },
      {
        "long_name": "Dhaka",
        "short_name": "Dhaka",
        "types": [
          "locality",
          "political"
        ]
      },
      {
        "long_name": "Dhaka District",
        "short_name": "Dhaka District",
        "types": [
          "administrative_area_level_2",
          "political"
        ]
      },
      {
        "long_name": "Dhaka Division",
        "short_name": "Dhaka Division",
        "types": [
          "administrative_area_level_1",
          "political"
        ]
      },
      {
        "long_name": "Bangladesh",
        "short_name": "BD",
        "types": [
          "country",
          "political"
        ]
      },
      {
        "long_name": "1212",
        "short_name": "1212",
        "types": [
          "postal_code"
        ]
      }
    ],
    "formatted_address": "Green Delta AIMS Tower, 51-52, Mohakhali Commercial Area, Bir Uttam AK Khandakar Rd, Dhaka 1212, Bangladesh",
    "geometry": {
      "bounds": {
        "northeast": {
          "lat": 23.7805832,
          "lng": 90.4078941
        },
        "southwest": {
          "lat": 23.7803991,
          "lng": 90.4076461
        }
      },
      "location": {
        "lat": 23.7804576,
        "lng": 90.407769
      },
      "location_type": "ROOFTOP",
      "viewport": {
        "northeast": {
          "lat": 23.7818254802915,
          "lng": 90.40911908029149
        },
        "southwest": {
          "lat": 23.7791275197085,
          "lng": 90.40642111970848
        }
      }
    },
    "place_id": "ChIJdxA7AHTHVTcRURBaYKRS1hI",
    "types": [
      "premise"
    ]
  }
]